<?xml version="1.0" encoding="UTF-8"?>
<gpx version="1.1" creator="passmefast-routes" xmlns="http://www.topografix.com/GPX/1/1">
  <metadata>
    <name>Borehamwood Route 5</name>
    <desc>Borehamwood driving test centre — route 5 of 5. Waypoints at key junctions; your GPS calculates the path between them.</desc>
  </metadata>
  <rte>
    <name>Borehamwood Route 5</name>
    <rtept lat="51.6458" lon="-0.2535"><name>Driving Test Centre</name></rtept>
    <rtept lat="51.6435" lon="-0.2510"><name>Elstree Way</name></rtept>
    <rtept lat="51.6568" lon="-0.2547"><name>Shenley Road</name></rtept>
    <rtept lat="51.6611" lon="-0.2620"><name>Hartforde Road</name></rtept>
    <rtept lat="51.6624" lon="-0.2672"><name>Theobald Street</name></rtept>
    <rtept lat="51.6650" lon="-0.2710"><name>Gateshead Road</name></rtept>
    <rtept lat="51.6699" lon="-0.2800"><name>Allerton Road</name></rtept>
    <rtept lat="51.6755" lon="-0.2740"><name>Stanborough Avenue</name></rtept>
    <rtept lat="51.6736" lon="-0.2774"><name>Stapleton Road</name></rtept>
    <rtept lat="51.6783" lon="-0.2763"><name>Green Street</name></rtept>
    <rtept lat="51.6904" lon="-0.2807"><name>Cowley Hill</name></rtept>
    <rtept lat="51.6755" lon="-0.2740"><name>Rowley Lane</name></rtept>
    <rtept lat="51.6470" lon="-0.2475"><name>Elstree Way</name></rtept>
    <rtept lat="51.6458" lon="-0.2535"><name>Driving Test Centre</name></rtept>
  </rte>
</gpx>
