<?xml version="1.0" encoding="UTF-8"?>
<gpx version="1.1" creator="DrivingTestRoutes"
     xmlns="http://www.topografix.com/GPX/1/1"
     xmlns:xsi="http://www.w3.org/2001/XMLSchema-instance"
     xsi:schemaLocation="http://www.topografix.com/GPX/1/1 http://www.topografix.com/GPX/1/1/gpx.xsd">
  <metadata>
    <name>MillHill Route 5</name>
    <desc>Driving test route - approximate waypoints for GPS navigation</desc>
  </metadata>
  <rte>
    <name>MillHill Route 5</name>
    <rtept lat="51.613000" lon="-0.229000">
      <name>1. Mill Hill Driving Test Centre</name>
    </rtept>
    <rtept lat="51.606000" lon="-0.238000">
      <name>2. Woodcroft Avenue</name>
    </rtept>
    <rtept lat="51.608126" lon="-0.276183">
      <name>3. Burnt Oak Broadway</name>
    </rtept>
    <rtept lat="51.605000" lon="-0.291000">
      <name>4. Beverley Drive</name>
    </rtept>
    <rtept lat="51.586711" lon="-0.358453">
      <name>5. Cumberland Road</name>
    </rtept>
    <rtept lat="51.592185" lon="-0.286416">
      <name>6. Honeypot Lane</name>
    </rtept>
    <rtept lat="51.603017" lon="-0.283753">
      <name>7. Camrose Avenue</name>
    </rtept>
    <rtept lat="51.607504" lon="-0.273775">
      <name>8. Deansbrook Road</name>
    </rtept>
    <rtept lat="51.613000" lon="-0.229000">
      <name>9. Mill Hill Driving Test Centre</name>
    </rtept>
  </rte>
</gpx>